{
  "races": [
    {
      "name": "Australian Grand Prix",
      "location": "Melbourne",
      "latitude": -37.8497,
      "longitude": 144.968,
      "round": 1,
      "slug": "australian-grand-prix",
      "localeKey": "australian-grand-prix",
      "sessions": {
        "fp1": "2026-03-06T01:30:00Z",
        "fp2": "2026-03-06T05:00:00Z",
        "fp3": "2026-03-07T01:30:00Z",
        "qualifying": "2026-03-07T05:00:00Z",
        "gp": "2026-03-08T04:00:00Z"
      }
    },
    {
      "name": "Chinese Grand Prix",
      "location": "Shanghai",
      "latitude": 31.3389,
      "longitude": 121.2197,
      "round": 2,
      "slug": "chinese-grand-prix",
      "localeKey": "chinese-grand-prix",
      "sessions": {
        "fp1": "2026-03-13T03:30:00Z",
        "sprintQualifying": "2026-03-13T07:30:00Z",
        "sprint": "2026-03-14T03:00:00Z",
        "qualifying": "2026-03-14T07:00:00Z",
        "gp": "2026-03-15T07:00:00Z"
      }
    },
    {
      "name": "Japanese Grand Prix",
      "location": "Suzuka",
      "latitude": 34.8431,
      "longitude": 136.541,
      "round": 3,
      "slug": "japanese-grand-prix",
      "localeKey": "japanese-grand-prix",
      "sessions": {
        "fp1": "2026-03-27T02:30:00Z",
        "fp2": "2026-03-27T06:00:00Z",
        "fp3": "2026-03-28T02:30:00Z",
        "qualifying": "2026-03-28T06:00:00Z",
        "gp": "2026-03-29T05:00:00Z"
      }
    },
    {
      "name": "Bahrain Grand Prix",
      "location": "Sakhir",
      "latitude": 26.0325,
      "longitude": 50.5106,
      "round": 4,
      "slug": "bahrain-grand-prix",
      "localeKey": "bahrain-grand-prix",
      "sessions": {
        "fp1": "2026-04-10T11:30:00Z",
        "fp2": "2026-04-10T15:00:00Z",
        "fp3": "2026-04-11T12:30:00Z",
        "qualifying": "2026-04-11T16:00:00Z",
        "gp": "2026-04-12T15:00:00Z"
      }
    },
    {
      "name": "Saudi Arabian Grand Prix",
      "location": "Jeddah",
      "latitude": 21.6319,
      "longitude": 39.1044,
      "round": 5,
      "slug": "saudi-arabian-grand-prix",
      "localeKey": "saudi-arabian-grand-prix",
      "sessions": {
        "fp1": "2026-04-17T13:30:00Z",
        "fp2": "2026-04-17T17:00:00Z",
        "fp3": "2026-04-18T13:30:00Z",
        "qualifying": "2026-04-18T17:00:00Z",
        "gp": "2026-04-19T17:00:00Z"
      }
    },
    {
      "name": "Miami Grand Prix",
      "location": "Miami",
      "latitude": 25.9581,
      "longitude": -80.2389,
      "round": 6,
      "slug": "miami-grand-prix",
      "localeKey": "miami-grand-prix",
      "sessions": {
        "fp1": "2026-05-01T16:30:00Z",
        "sprintQualifying": "2026-05-01T20:30:00Z",
        "sprint": "2026-05-02T16:00:00Z",
        "qualifying": "2026-05-02T20:00:00Z",
        "gp": "2026-05-03T20:00:00Z"
      }
    },
    {
      "name": "Canadian Grand Prix",
      "location": "Montreal",
      "latitude": 45.5005,
      "longitude": -73.5225,
      "round": 7,
      "slug": "canadian-grand-prix",
      "localeKey": "canadian-grand-prix",
      "sessions": {
        "fp1": "2026-05-22T16:30:00Z",
        "sprintQualifying": "2026-05-22T20:30:00Z",
        "sprint": "2026-05-23T16:00:00Z",
        "qualifying": "2026-05-23T20:00:00Z",
        "gp": "2026-05-24T20:00:00Z"
      }
    },
    {
      "name": "Monaco Grand Prix",
      "location": "Monte Carlo",
      "latitude": 43.7347,
      "longitude": 7.4206,
      "round": 8,
      "slug": "monaco-grand-prix",
      "localeKey": "monaco-grand-prix",
      "sessions": {
        "fp1": "2026-06-05T11:30:00Z",
        "fp2": "2026-06-05T15:00:00Z",
        "fp3": "2026-06-06T10:30:00Z",
        "qualifying": "2026-06-06T14:00:00Z",
        "gp": "2026-06-07T13:00:00Z"
      }
    },
    {
      "name": "Barcelona Grand Prix",
      "location": "Barcelona",
      "latitude": 41.57,
      "longitude": 2.2611,
      "round": 9,
      "slug": "barcelona-grand-prix",
      "localeKey": "barcelona-grand-prix",
      "sessions": {
        "fp1": "2026-06-12T11:30:00Z",
        "fp2": "2026-06-12T15:00:00Z",
        "fp3": "2026-06-13T10:30:00Z",
        "qualifying": "2026-06-13T14:00:00Z",
        "gp": "2026-06-14T13:00:00Z"
      }
    },
    {
      "name": "Austrian Grand Prix",
      "location": "Spielberg",
      "latitude": 47.2197,
      "longitude": 14.7647,
      "round": 10,
      "slug": "austrian-grand-prix",
      "localeKey": "austrian-grand-prix",
      "sessions": {
        "fp1": "2026-06-26T11:30:00Z",
        "fp2": "2026-06-26T15:00:00Z",
        "fp3": "2026-06-27T10:30:00Z",
        "qualifying": "2026-06-27T14:00:00Z",
        "gp": "2026-06-28T13:00:00Z"
      }
    },
    {
      "name": "British Grand Prix",
      "location": "Silverstone",
      "latitude": 52.0786,
      "longitude": -1.0169,
      "round": 11,
      "slug": "british-grand-prix",
      "localeKey": "british-grand-prix",
      "sessions": {
        "fp1": "2026-07-03T11:30:00Z",
        "sprintQualifying": "2026-07-03T15:30:00Z",
        "sprint": "2026-07-04T11:00:00Z",
        "qualifying": "2026-07-04T15:00:00Z",
        "gp": "2026-07-05T14:00:00Z"
      }
    },
    {
      "name": "Belgian Grand Prix",
      "location": "Spa-Francorchamps",
      "latitude": 50.4372,
      "longitude": 5.9714,
      "round": 12,
      "slug": "belgian-grand-prix",
      "localeKey": "belgian-grand-prix",
      "sessions": {
        "fp1": "2026-07-17T11:30:00Z",
        "fp2": "2026-07-17T15:00:00Z",
        "fp3": "2026-07-18T10:30:00Z",
        "qualifying": "2026-07-18T14:00:00Z",
        "gp": "2026-07-19T13:00:00Z"
      }
    },
    {
      "name": "Hungarian Grand Prix",
      "location": "Budapest",
      "latitude": 47.5789,
      "longitude": 19.2486,
      "round": 13,
      "slug": "hungarian-grand-prix",
      "localeKey": "hungarian-grand-prix",
      "sessions": {
        "fp1": "2026-07-24T11:30:00Z",
        "fp2": "2026-07-24T15:00:00Z",
        "fp3": "2026-07-25T10:30:00Z",
        "qualifying": "2026-07-25T14:00:00Z",
        "gp": "2026-07-26T13:00:00Z"
      }
    },
    {
      "name": "Dutch Grand Prix",
      "location": "Zandvoort",
      "latitude": 52.3888,
      "longitude": 4.5409,
      "round": 14,
      "slug": "dutch-grand-prix",
      "localeKey": "dutch-grand-prix",
      "sessions": {
        "fp1": "2026-08-21T10:30:00Z",
        "sprintQualifying": "2026-08-21T14:30:00Z",
        "sprint": "2026-08-22T10:00:00Z",
        "qualifying": "2026-08-22T14:00:00Z",
        "gp": "2026-08-23T13:00:00Z"
      }
    },
    {
      "name": "Italian Grand Prix",
      "location": "Monza",
      "latitude": 45.6156,
      "longitude": 9.2811,
      "round": 15,
      "slug": "italian-grand-prix",
      "localeKey": "italian-grand-prix",
      "sessions": {
        "fp1": "2026-09-04T10:30:00Z",
        "fp2": "2026-09-04T14:00:00Z",
        "fp3": "2026-09-05T10:30:00Z",
        "qualifying": "2026-09-05T14:00:00Z",
        "gp": "2026-09-06T13:00:00Z"
      }
    },
    {
      "name": "Spanish Grand Prix (Madrid)",
      "location": "Madrid",
      "latitude": 40.4168,
      "longitude": -3.7038,
      "round": 16,
      "slug": "spanish-grand-prix-madrid",
      "localeKey": "spanish-grand-prix-madrid",
      "sessions": {
        "fp1": "2026-09-11T11:30:00Z",
        "fp2": "2026-09-11T15:00:00Z",
        "fp3": "2026-09-12T10:30:00Z",
        "qualifying": "2026-09-12T14:00:00Z",
        "gp": "2026-09-13T13:00:00Z"
      }
    },
    {
      "name": "Azerbaijan Grand Prix",
      "location": "Baku",
      "latitude": 40.3725,
      "longitude": 49.8533,
      "round": 17,
      "slug": "azerbaijan-grand-prix",
      "localeKey": "azerbaijan-grand-prix",
      "sessions": {
        "fp1": "2026-09-24T08:30:00Z",
        "fp2": "2026-09-24T12:00:00Z",
        "fp3": "2026-09-25T08:30:00Z",
        "qualifying": "2026-09-25T12:00:00Z",
        "gp": "2026-09-26T11:00:00Z"
      }
    },
    {
      "name": "Singapore Grand Prix",
      "location": "Marina Bay",
      "latitude": 1.2914,
      "longitude": 103.864,
      "round": 18,
      "slug": "singapore-grand-prix",
      "localeKey": "singapore-grand-prix",
      "sessions": {
        "fp1": "2026-10-09T09:30:00Z",
        "sprintQualifying": "2026-10-09T12:30:00Z",
        "sprint": "2026-10-10T09:00:00Z",
        "qualifying": "2026-10-10T13:00:00Z",
        "gp": "2026-10-11T12:00:00Z"
      }
    },
    {
      "name": "United States Grand Prix",
      "location": "Austin",
      "latitude": 30.1328,
      "longitude": -97.6411,
      "round": 19,
      "slug": "united-states-grand-prix",
      "localeKey": "united-states-grand-prix",
      "sessions": {
        "fp1": "2026-10-23T17:30:00Z",
        "fp2": "2026-10-23T21:00:00Z",
        "fp3": "2026-10-24T17:30:00Z",
        "qualifying": "2026-10-24T21:00:00Z",
        "gp": "2026-10-25T20:00:00Z"
      }
    },
    {
      "name": "Mexico City Grand Prix",
      "location": "Mexico City",
      "latitude": 19.4042,
      "longitude": -99.0907,
      "round": 20,
      "slug": "mexico-city-grand-prix",
      "localeKey": "mexico-city-grand-prix",
      "sessions": {
        "fp1": "2026-10-30T18:30:00Z",
        "fp2": "2026-10-30T22:00:00Z",
        "fp3": "2026-10-31T17:30:00Z",
        "qualifying": "2026-10-31T21:00:00Z",
        "gp": "2026-11-01T20:00:00Z"
      }
    },
    {
      "name": "Sao Paulo Grand Prix",
      "location": "Sao Paulo",
      "latitude": -23.7036,
      "longitude": -46.6997,
      "round": 21,
      "slug": "sao-paulo-grand-prix",
      "localeKey": "sao-paulo-grand-prix",
      "sessions": {
        "fp1": "2026-11-06T15:30:00Z",
        "fp2": "2026-11-06T19:00:00Z",
        "fp3": "2026-11-07T14:30:00Z",
        "qualifying": "2026-11-07T18:00:00Z",
        "gp": "2026-11-08T17:00:00Z"
      }
    },
    {
      "name": "Las Vegas Grand Prix",
      "location": "Las Vegas",
      "latitude": 36.1147,
      "longitude": -115.1728,
      "round": 22,
      "slug": "las-vegas-grand-prix",
      "localeKey": "las-vegas-grand-prix",
      "sessions": {
        "fp1": "2026-11-20T02:30:00Z",
        "fp2": "2026-11-20T06:00:00Z",
        "fp3": "2026-11-21T02:30:00Z",
        "qualifying": "2026-11-21T06:00:00Z",
        "gp": "2026-11-22T06:00:00Z"
      }
    },
    {
      "name": "Qatar Grand Prix",
      "location": "Lusail",
      "latitude": 25.49,
      "longitude": 51.4542,
      "round": 23,
      "slug": "qatar-grand-prix",
      "localeKey": "qatar-grand-prix",
      "sessions": {
        "fp1": "2026-11-27T13:30:00Z",
        "fp2": "2026-11-27T17:00:00Z",
        "fp3": "2026-11-28T14:30:00Z",
        "qualifying": "2026-11-28T18:00:00Z",
        "gp": "2026-11-29T16:00:00Z"
      }
    },
    {
      "name": "Abu Dhabi Grand Prix",
      "location": "Yas Marina",
      "latitude": 24.4672,
      "longitude": 54.6031,
      "round": 24,
      "slug": "abu-dhabi-grand-prix",
      "localeKey": "abu-dhabi-grand-prix",
      "sessions": {
        "fp1": "2026-12-04T09:30:00Z",
        "fp2": "2026-12-04T13:00:00Z",
        "fp3": "2026-12-05T10:30:00Z",
        "qualifying": "2026-12-05T14:00:00Z",
        "gp": "2026-12-06T13:00:00Z"
      }
    }
  ]
}